[{"City_index": 0, "Latitude": "52.2319581", "Longitude": "21.0067249", "City": "Warszawa"}, {"City_index": 1, "Latitude": "50.0619474", "Longitude": "19.9368564", "City": "Kraków"}, {"City_index": 2, "Latitude": "51.7687323", "Longitude": "19.4569911", "City": "Łódź"}, {"City_index": 3, "Latitude": "51.1089776", "Longitude": "17.0326689", "City": "Wrocław"}, {"City_index": 4, "Latitude": "52.4006632", "Longitude": "16.91973259178088", "City": "Poznań"}, {"City_index": 5, "Latitude": "54.3706858", "Longitude": "18.61298210330077", "City": "Gdańsk"}, {"City_index": 6, "Latitude": "53.4301818", "Longitude": "14.5509623", "City": "Szczecin"}, {"City_index": 7, "Latitude": "53.1219648", "Longitude": "18.0002529", "City": "Bydgoszcz"}, {"City_index": 8, "Latitude": "51.250559", "Longitude": "22.5701022", "City": "Lublin"}, {"City_index": 9, "Latitude": "50.2598987", "Longitude": "19.0215852", "City": "Katowice"}, {"City_index": 10, "Latitude": "53.127505049999996", "Longitude": "23.147050870161664", "City": "Białystok"}, {"City_index": 11, "Latitude": "54.5164982", "Longitude": "18.5402738", "City": "Gdynia"}, {"City_index": 12, "Latitude": "50.8120466", "Longitude": "19.113213", "City": "Częstochowa"}, {"City_index": 13, "Latitude": "51.4022557", "Longitude": "21.1541546", "City": "Radom"}, {"City_index": 14, "Latitude": "50.2780834", "Longitude": "19.1342944", "City": "Sosnowiec"}, {"City_index": 15, "Latitude": "53.0102721", "Longitude": "18.6048094", "City": "Toruń"}, {"City_index": 16, "Latitude": "50.85402845", "Longitude": "20.60991568734511", "City": "Kielce"}, {"City_index": 17, "Latitude": "50.0374531", "Longitude": "22.0047174", "City": "Rzeszów"}, {"City_index": 18, "Latitude": "50.294113", "Longitude": "18.6657306", "City": "Gliwice"}, {"City_index": 19, "Latitude": "50.3086154", "Longitude": "18.7863749", "City": "Zabrze"}, {"City_index": 20, "Latitude": "53.7767239", "Longitude": "20.477780523409734", "City": "Olsztyn"}, {"City_index": 21, "Latitude": "49.822118", "Longitude": "19.0448936", "City": "Bielsko-Biała"}, {"City_index": 22, "Latitude": "50.3657432", "Longitude": "18.87153251609449", "City": "Bytom"}, {"City_index": 23, "Latitude": "50.27034825", "Longitude": "18.864387901747556", "City": "Ruda Śląska"}, {"City_index": 24, "Latitude": "50.0955793", "Longitude": "18.5419933", "City": "Rybnik"}, {"City_index": 25, "Latitude": "50.114397", "Longitude": "18.9965933", "City": "Tychy"}, {"City_index": 26, "Latitude": "50.3308692", "Longitude": "19.2078918", "City": "Dąbrowa Górnicza"}, {"City_index": 27, "Latitude": "50.6668184", "Longitude": "17.9236408", "City": "Opole"}, {"City_index": 28, "Latitude": "54.1558708", "Longitude": "19.4044583", "City": "Elbląg"}, {"City_index": 29, "Latitude": "52.5464521", "Longitude": "19.7008606", "City": "Płock"}, {"City_index": 30, "Latitude": "50.7659054", "Longitude": "16.2825424", "City": "Wałbrzych"}, {"City_index": 31, "Latitude": "52.7309926", "Longitude": "15.2400451", "City": "Gorzów Wielkopolski"}, {"City_index": 32, "Latitude": "52.66017", "Longitude": "19.0722963", "City": "Włocławek"}, {"City_index": 33, "Latitude": "50.025988299999995", "Longitude": "20.96405842696229", "City": "Tarnów"}, {"City_index": 34, "Latitude": "50.288556299999996", "Longitude": "18.97044253093511", "City": "Chorzów"}, {"City_index": 35, "Latitude": "51.74736505", "Longitude": "18.079590087700034", "City": "Kalisz"}, {"City_index": 36, "Latitude": "54.19092", "Longitude": "16.17707", "City": "Koszalin"}, {"City_index": 37, "Latitude": "51.204768900000005", "Longitude": "16.174675034638256", "City": "Legnica"}, {"City_index": 38, "Latitude": "53.47251195", "Longitude": "18.761893676880046", "City": "Grudziądz"}, {"City_index": 39, "Latitude": "54.46357705", "Longitude": "17.02094802171876", "City": "Słupsk"}, {"City_index": 40, "Latitude": "50.203439", "Longitude": "19.2721559", "City": "Jaworzno"}, {"City_index": 41, "Latitude": "49.9519085", "Longitude": "18.6023614", "City": "Jastrzębie-Zdrój"}, {"City_index": 42, "Latitude": "52.171958950000004", "Longitude": "20.802982691260024", "City": "Pruszków"}, {"City_index": 43, "Latitude": "49.61030395", "Longitude": "20.714936589668028", "City": "Nowy Sącz"}, {"City_index": 44, "Latitude": "50.280247349999996", "Longitude": "21.46313425491699", "City": "Mielec"}, {"City_index": 45, "Latitude": "50.95020905", "Longitude": "21.411509244172763", "City": "Ostrowiec Świętokrzyski"}, {"City_index": 46, "Latitude": "50.31285075", "Longitude": "19.017785857354603", "City": "Siemianowice Śląskie"}, {"City_index": 47, "Latitude": "53.30897745", "Longitude": "15.031645934671849", "City": "Stargard Szczeciński"}, {"City_index": 48, "Latitude": "51.6662312", "Longitude": "19.35925466859993", "City": "Pabianice"}, {"City_index": 49, "Latitude": "50.8424835", "Longitude": "16.4870549", "City": "Świdnica"}, {"City_index": 50, "Latitude": "51.95805445", "Longitude": "20.144870111023707", "City": "Skierniewice"}, {"City_index": 51, "Latitude": "50.3448836", "Longitude": "18.2109594", "City": "Kędzierzyn-Koźle"}, {"City_index": 52, "Latitude": "51.8555209", "Longitude": "19.390634827153598", "City": "Zgierz"}, {"City_index": 53, "Latitude": "53.18243065", "Longitude": "22.052183817808846", "City": "Łomża"}, {"City_index": 54, "Latitude": "53.82395835", "Longitude": "22.361915871120694", "City": "Ełk"}, {"City_index": 55, "Latitude": "49.78355525", "Longitude": "22.78851130307014", "City": "Przemyśl"}, {"City_index": 56, "Latitude": "51.03845695", "Longitude": "21.082038854471925", "City": "Starachowice"}, {"City_index": 57, "Latitude": "51.695926", "Longitude": "17.4374158", "City": "Krotoszyn"}, {"City_index": 58, "Latitude": "52.52465015", "Longitude": "17.598152438162245", "City": "Gniezno"}, {"City_index": 59, "Latitude": "54.176211550000005", "Longitude": "15.57640369780165", "City": "Kołobrzeg"}, {"City_index": 60, "Latitude": "53.9097477", "Longitude": "14.2510703", "City": "Świnoujście"}, {"City_index": 61, "Latitude": "50.0159029", "Longitude": "22.6796573", "City": "Jarosław"}, {"City_index": 62, "Latitude": "51.594911550000006", "Longitude": "18.950108677704648", "City": "Zduńska Wola"}, {"City_index": 63, "Latitude": "52.05553205", "Longitude": "20.44464353021984", "City": "Żyrardów"}, {"City_index": 64, "Latitude": "51.0766258", "Longitude": "17.7185619", "City": "Namysłów"}, {"City_index": 65, "Latitude": "51.5929947", "Longitude": "19.1334784", "City": "Łask"}, {"City_index": 66, "Latitude": "53.8437331", "Longitude": "22.9802357", "City": "Augustów"}, {"City_index": 67, "Latitude": "50.943493200000006", "Longitude": "22.208352670460982", "City": "Kraśnik"}, {"City_index": 68, "Latitude": "49.9778328", "Longitude": "18.9425124", "City": "Pszczyna"}, {"City_index": 69, "Latitude": "53.078032", "Longitude": "21.574868563752748", "City": "Ostrołęka"}, {"City_index": 70, "Latitude": "51.67019285", "Longitude": "16.06140366346836", "City": "Głogów"}, {"City_index": 71, "Latitude": "50.6793066", "Longitude": "21.7495055", "City": "Sandomierz"}, {"City_index": 72, "Latitude": "54.102712499999996", "Longitude": "22.931878217494493", "City": "Suwałki"}, {"City_index": 73, "Latitude": "53.5656939", "Longitude": "14.8299285", "City": "Goleniów"}, {"City_index": 74, "Latitude": "53.3591987", "Longitude": "17.043815994517477", "City": "Złotów"}, {"City_index": 75, "Latitude": "51.6101629", "Longitude": "16.8583657", "City": "Rawicz"}, {"City_index": 76, "Latitude": "49.5567406", "Longitude": "22.211701678304745", "City": "Sanok"}, {"City_index": 77, "Latitude": "54.5324454", "Longitude": "17.74439512714324", "City": "Lębork"}, {"City_index": 78, "Latitude": "53.1386896", "Longitude": "17.5998891", "City": "Nakło nad Notecią"}, {"City_index": 79, "Latitude": "50.4738029", "Longitude": "17.3324733", "City": "Nysa"}, {"City_index": 80, "Latitude": "53.6999165", "Longitude": "17.570344138115953", "City": "Chojnice"}, {"City_index": 81, "Latitude": "50.872464550000004", "Longitude": "16.32287834675313", "City": "Świebodzice"}, {"City_index": 82, "Latitude": "52.81220655", "Longitude": "17.201913487483125", "City": "Wągrowiec"}, {"City_index": 83, "Latitude": "50.8588648", "Longitude": "17.464124493778538", "City": "Brzeg"}, {"City_index": 84, "Latitude": "52.336688800000005", "Longitude": "16.87184661280476", "City": "Luboń"}, {"City_index": 85, "Latitude": "51.2205345", "Longitude": "18.5701081", "City": "Wieluń"}, {"City_index": 86, "Latitude": "50.1500892", "Longitude": "18.8390661", "City": "Łaziska Górne"}, {"City_index": 87, "Latitude": "52.40082835", "Longitude": "22.04647848005508", "City": "Węgrów"}, {"City_index": 88, "Latitude": "51.4257664", "Longitude": "17.9331788", "City": "Ostrzeszów"}, {"City_index": 89, "Latitude": "52.054506200000006", "Longitude": "19.198290402458163", "City": "Łęczyca"}, {"City_index": 90, "Latitude": "50.7291725", "Longitude": "16.656753139456175", "City": "Dzierżoniów"}, {"City_index": 91, "Latitude": "54.2534341", "Longitude": "20.80839323665569", "City": "Bartoszyce"}, {"City_index": 92, "Latitude": "54.0398024", "Longitude": "22.4934246", "City": "Olecko"}, {"City_index": 93, "Latitude": "50.0842685", "Longitude": "19.125296379105393", "City": "Bieruń"}, {"City_index": 94, "Latitude": "54.0717523", "Longitude": "18.4459951", "City": "Skarszewy"}, {"City_index": 95, "Latitude": "52.4313708", "Longitude": "19.555107", "City": "Zwoleń"}, {"City_index": 96, "Latitude": "52.994997749999996", "Longitude": "16.919925663627275", "City": "Chodzież"}, {"City_index": 97, "Latitude": "50.0664038", "Longitude": "18.424506206793204", "City": "Rydułtowy"}, {"City_index": 98, "Latitude": "50.9077147", "Longitude": "14.9539185", "City": "Bogatynia"}, {"City_index": 99, "Latitude": "54.130586300000004", "Longitude": "20.56491698491211", "City": "Lidzbark Warmiński"}, {"City_index": 100, "Latitude": "52.5119594", "Longitude": "15.2441003", "City": "Lubniewice"}, {"City_index": 101, "Latitude": "49.746962749999994", "Longitude": "21.493576018400987", "City": "Jasło"}, {"City_index": 102, "Latitude": "49.9778328", "Longitude": "18.9425124", "City": "Pszczyna"}]